[
  {
    "name": "로즈마리 산골목 캠핑장",
    "addr": "서울시 성북구 13길 20-3",
    "img": "https://cdn.pixabay.com/photo/2020/03/15/03/07/camping-4932314_1280.jpg",
    "lat": 37.6022,
    "lng": 127.0137,
    "province": "서울특별시",
    "city": "성북구",
    "theme": ["가족", "자연", "글램핑"],
    "facility": ["전기", "화장실", "마트/편의점"],
    "link": "rose.html",
    "desc": "도심 속 산골목에서 자연을 만나는 힐링 캠핑!",
    "season": "연중무휴",
    "price": "1박 40,000원~",
    "phone": "010-1111-1111",
    "rating": 4.7,
    "review": 32
  },
  {
    "name": "초록나무 캠핑장",
    "addr": "서울시 마포구 12길 30",
    "img": "https://cdn.pixabay.com/photo/2020/03/01/06/43/spring-4891823_1280.jpg",
    "lat": 37.5562,
    "lng": 126.9107,
    "province": "서울특별시",
    "city": "마포구",
    "theme": ["커플", "숲속", "차박"],
    "facility": ["전기", "와이파이", "화장실"],
    "link": "green.html",
    "desc": "초록 숲길 따라 걷는 마포구 최고의 커플 캠핑!",
    "season": "3월~11월",
    "price": "1박 35,000원~",
    "phone": "010-2222-2222",
    "rating": 4.3,
    "review": 18
  },
  {
    "name": "알프스 산맥 캠핑장",
    "addr": "서울시 용산구 43길 20",
    "img": "https://cdn.pixabay.com/photo/2017/08/17/08/08/camp-2650359_1280.jpg",
    "lat": 37.5325,
    "lng": 126.9901,
    "province": "서울특별시",
    "city": "용산구",
    "theme": ["와일드", "가족", "카라반"],
    "facility": ["전기", "샤워장", "화장실"],
    "link": "alps.html",
    "desc": "알프스 못지 않은 서울의 전망과 밤하늘을!",
    "season": "4월~10월",
    "price": "1박 45,000원~",
    "phone": "010-3333-3333",
    "rating": 4.8,
    "review": 22
  },
  {
    "name": "한강 뷰 캠핑장",
    "addr": "서울시 영등포구 여의도동 1-1",
    "img": "https://cdn.pixabay.com/photo/2020/03/15/03/07/camping-4932314_1280.jpg",
    "lat": 37.5260,
    "lng": 126.9241,
    "province": "서울특별시",
    "city": "영등포구",
    "theme": ["도심", "가족", "뷰맛집"],
    "facility": ["전기", "와이파이", "샤워장"],
    "link": "hangang.html",
    "desc": "한강이 내려다보이는 뷰맛집 도심 캠핑!",
    "season": "4월~11월",
    "price": "1박 38,000원~",
    "phone": "010-4444-4444",
    "rating": 4.5,
    "review": 27
  },

  {
    "name": "해운대 바닷가 캠핑장",
    "addr": "부산시 해운대구 달맞이길 33",
    "img": "https://cdn.pixabay.com/photo/2016/09/28/12/35/scotland-1700413_1280.jpg",
    "lat": 35.1632,
    "lng": 129.1636,
    "province": "부산광역시",
    "city": "해운대구",
    "theme": ["바다", "가족", "카라반"],
    "facility": ["전기", "마트/편의점", "와이파이"],
    "link": "haeundae.html",
    "desc": "해운대 바닷가 파도 소리와 함께하는 힐링 캠핑!",
    "season": "5월~10월",
    "price": "1박 50,000원~",
    "phone": "051-123-4567",
    "rating": 4.6,
    "review": 21
  },
  {
    "name": "광안리 해변 캠핑장",
    "addr": "부산시 수영구 광안해변로 35",
    "img": "https://cdn.pixabay.com/photo/2020/02/09/08/08/tent-4832253_1280.jpg",
    "lat": 35.1534,
    "lng": 129.1186,
    "province": "부산광역시",
    "city": "수영구",
    "theme": ["커플", "바다", "글램핑"],
    "facility": ["화장실", "샤워장", "와이파이"],
    "link": "gwangalli.html",
    "desc": "광안리 해변 바로 앞, 일몰과 파도 소리 명소!",
    "season": "연중무휴",
    "price": "1박 46,000원~",
    "phone": "051-234-5678",
    "rating": 4.4,
    "review": 15
  },
  {
    "name": "송정 바다숲 캠핑장",
    "addr": "부산시 기장군 송정동 112",
    "img": "https://cdn.pixabay.com/photo/2020/01/30/19/15/camping-4806279_1280.jpg",
    "lat": 35.1815,
    "lng": 129.2026,
    "province": "부산광역시",
    "city": "기장군",
    "theme": ["자연", "가족", "차박"],
    "facility": ["마트/편의점", "전기", "화장실"],
    "link": "songjeong.html",
    "desc": "바다와 숲, 둘 다 즐기는 기장 송정동 가족 캠핑!",
    "season": "3월~11월",
    "price": "1박 33,000원~",
    "phone": "051-345-6789",
    "rating": 4.2,
    "review": 10
  },

  {
    "name": "설악산 힐링 캠핑장",
    "addr": "강원도 속초시 설악동 100-12",
    "img": "https://cdn.pixabay.com/photo/2021/02/05/01/22/man-5983064_1280.jpg",
    "lat": 38.1706,
    "lng": 128.5603,
    "province": "강원도",
    "city": "속초시",
    "theme": ["가족", "자연", "산"],
    "facility": ["전기", "화장실", "마트/편의점"],
    "link": "seorak.html",
    "desc": "설악산 자락에서 만나는 힐링 가족 캠핑장.",
    "season": "4월~10월",
    "price": "1박 37,000원~",
    "phone": "033-123-4567",
    "rating": 4.8,
    "review": 25
  },
  {
    "name": "춘천 숲속 캠핑장",
    "addr": "강원도 춘천시 남산면 77-9",
    "img": "https://cdn.pixabay.com/photo/2017/09/27/04/41/camping-2790968_1280.jpg",
    "lat": 37.8805,
    "lng": 127.7292,
    "province": "강원도",
    "city": "춘천시",
    "theme": ["가족", "숲속", "글램핑"],
    "facility": ["화장실", "샤워장"],
    "link": "chuncheon.html",
    "desc": "춘천 남산면 숲속 깊은 곳, 조용한 자연 속 휴식!",
    "season": "3월~10월",
    "price": "1박 31,000원~",
    "phone": "033-222-3333",
    "rating": 4.5,
    "review": 13
  },
  {
    "name": "평창강 오토 캠핑장",
    "addr": "강원도 평창군 진부면 23-8",
    "img": "https://cdn.pixabay.com/photo/2020/07/27/14/34/stars-5442598_1280.jpg",
    "lat": 37.6058,
    "lng": 128.5653,
    "province": "강원도",
    "city": "평창군",
    "theme": ["차박", "가족", "자연"],
    "facility": ["전기", "화장실", "와이파이"],
    "link": "pyeongchang.html",
    "desc": "평창강변 따라 펼쳐진 탁 트인 오토 캠핑 명소.",
    "season": "5월~9월",
    "price": "1박 28,000원~",
    "phone": "033-444-5555",
    "rating": 4.4,
    "review": 9
  },

  {
    "name": "남한산성 숲 캠핑장",
    "addr": "경기도 광주시 남한산성면 15-4",
    "img": "https://cdn.pixabay.com/photo/2023/01/22/16/45/nature-7736939_1280.jpg",
    "lat": 37.4774,
    "lng": 127.2083,
    "province": "경기도",
    "city": "광주시",
    "theme": ["가족", "숲속", "역사"],
    "facility": ["전기", "화장실", "마트/편의점"],
    "link": "namhansan.html",
    "desc": "남한산성 근처, 숲과 역사를 동시에 즐기는 곳.",
    "season": "연중무휴",
    "price": "1박 30,000원~",
    "phone": "031-333-7777",
    "rating": 4.6,
    "review": 19
  },
  {
    "name": "파주 임진강 오토캠핑장",
    "addr": "경기도 파주시 탄현면 220-1",
    "img": "https://cdn.pixabay.com/photo/2019/11/07/20/50/camping-4609879_1280.jpg",
    "lat": 37.7886,
    "lng": 126.7756,
    "province": "경기도",
    "city": "파주시",
    "theme": ["차박", "오토", "가족"],
    "facility": ["전기", "와이파이", "샤워장"],
    "link": "paju.html",
    "desc": "임진강 옆, 시원한 바람 맞으며 즐기는 오토캠핑!",
    "season": "4월~10월",
    "price": "1박 29,000원~",
    "phone": "031-222-6666",
    "rating": 4.3,
    "review": 8
  },
  {
    "name": "양평 두물머리 캠핑장",
    "addr": "경기도 양평군 양서면 72-2",
    "img": "https://cdn.pixabay.com/photo/2021/12/10/17/42/camp-6861087_1280.jpg",
    "lat": 37.5641,
    "lng": 127.2873,
    "province": "경기도",
    "city": "양평군",
    "theme": ["가족", "글램핑", "강변"],
    "facility": ["화장실", "샤워장", "마트/편의점"],
    "link": "yangpyeong.html",
    "desc": "두물머리 근처, 강변에서 여유를 즐기는 글램핑.",
    "season": "5월~9월",
    "price": "1박 37,000원~",
    "phone": "031-888-8888",
    "rating": 4.2,
    "review": 7
  },

  {
    "name": "성산 해변 캠핑장",
    "addr": "제주도 서귀포시 성산읍 45-9",
    "img": "https://cdn.pixabay.com/photo/2020/02/26/07/15/tent-4880855_1280.jpg",
    "lat": 33.4584,
    "lng": 126.9426,
    "province": "제주도",
    "city": "서귀포시",
    "theme": ["바다", "카라반", "자연"],
    "facility": ["전기", "화장실", "와이파이"],
    "link": "seongsan.html",
    "desc": "성산일출봉 아래 제주 바다 바로 앞 캠핑장.",
    "season": "3월~11월",
    "price": "1박 56,000원~",
    "phone": "064-555-2222",
    "rating": 4.7,
    "review": 14
  },
  {
    "name": "한림 오름숲 캠핑장",
    "addr": "제주도 제주시 한림읍 200-1",
    "img": "https://cdn.pixabay.com/photo/2017/08/29/04/16/site-2692058_1280.jpg",
    "lat": 33.4147,
    "lng": 126.2633,
    "province": "제주도",
    "city": "제주시",
    "theme": ["숲속", "가족", "글램핑"],
    "facility": ["전기", "화장실", "마트/편의점"],
    "link": "hanlim.html",
    "desc": "한림 오름 아래, 숲과 꽃이 어우러진 가족 캠핑장.",
    "season": "4월~10월",
    "price": "1박 49,000원~",
    "phone": "064-666-1234",
    "rating": 4.4,
    "review": 12
  },
  {
    "name": "우도 섬속의섬 캠핑장",
    "addr": "제주도 우도면 연평리 55",
    "img": "https://cdn.pixabay.com/photo/2017/07/31/21/16/tent-2561141_1280.jpg",
    "lat": 33.5097,
    "lng": 126.9566,
    "province": "제주도",
    "city": "우도면",
    "theme": ["섬", "바다", "가족"],
    "facility": ["전기", "마트/편의점", "화장실"],
    "link": "udo.html",
    "desc": "우도 바다와 푸른 초원이 만나는 가족 캠핑장.",
    "season": "5월~9월",
    "price": "1박 60,000원~",
    "phone": "064-111-9876",
    "rating": 4.3,
    "review": 6
  }
]
